{
"type": "FeatureCollection",
"name": "va_facilities",
"crs": { "type": "name", "properties": { "name": "urn:ogc:def:crs:OGC:1.3:CRS84" } },
"features": [
{ "type": "Feature", "properties": { "name": "Albany VAMC", "Facility Type": "VAMC", "S_CITY": "Albany", "State": "NY", "S_ZIP": 12208, "S_ADD1": "Samuel S. Stratton VAMC", "S_ADD2": "113 Holland Avenue", "STA_NO": "528A8", "Type": "Support Clinic", "Unnamed: 9": null, "full_address": "Samuel S. Stratton VAMC, Albany, NY 12208", "latitude": 42.6511674, "longitude": -73.754968 }, "geometry": { "type": "Point", "coordinates": [ -73.754968, 42.6511674 ] } },
{ "type": "Feature", "properties": { "name": "Albuquerque VAMC", "Facility Type": "VAMC", "S_CITY": "Albuquerque", "State": "NM", "S_ZIP": 87108, "S_ADD1": "New Mexico HCS - Albuquerque", "S_ADD2": "1501 San Pedro Drive, SE", "STA_NO": "501", "Type": "Support Clinic", "Unnamed: 9": null, "full_address": "New Mexico HCS - Albuquerque, Albuquerque, NM 87108", "latitude": 35.0841034, "longitude": -106.650985 }, "geometry": { "type": "Point", "coordinates": [ -106.650985, 35.0841034 ] } },
{ "type": "Feature", "properties": { "name": "Altoona VAMC", "Facility Type": "VAMC", "S_CITY": "Altoona", "State": "PA", "S_ZIP": 16602, "S_ADD1": "James E. Van Zandt VAMC", "S_ADD2": "2907 Pleasant Valley Boulevard", "STA_NO": "503", "Type": "Support Clinic", "Unnamed: 9": null, "full_address": "James E. Van Zandt VAMC, Altoona, PA 16602", "latitude": 40.5193586, "longitude": -78.3968299 }, "geometry": { "type": "Point", "coordinates": [ -78.3968299, 40.5193586 ] } },
{ "type": "Feature", "properties": { "name": "Ann Arbor VAMC", "Facility Type": "VAMC", "S_CITY": "Ann Arbor", "State": "MI", "S_ZIP": 48105, "S_ADD1": "Ann Arbor HCS", "S_ADD2": "2215 Fuller Road", "STA_NO": "506", "Type": "Support Clinic", "Unnamed: 9": null, "full_address": "Ann Arbor HCS, Ann Arbor, MI 48105", "latitude": 42.2813722, "longitude": -83.7484616 }, "geometry": { "type": "Point", "coordinates": [ -83.7484616, 42.2813722 ] } },
{ "type": "Feature", "properties": { "name": "Lenwood (Uptown) VAMC", "Facility Type": "VAMC", "S_CITY": "Augusta", "State": "GA", "S_ZIP": 30904, "S_ADD1": "VA Medical Center", "S_ADD2": "1 Freedom Way", "STA_NO": "509A0", "Type": "Network Site", "Unnamed: 9": null, "full_address": "VA Medical Center, Augusta, GA 30904", "latitude": 33.4644372, "longitude": -82.027358 }, "geometry": { "type": "Point", "coordinates": [ -82.027358, 33.4644372 ] } },
{ "type": "Feature", "properties": { "name": "Togus VAMC", "Facility Type": "VAMC", "S_CITY": "Augusta", "State": "ME", "S_ZIP": 4330, "S_ADD1": "VA Medical Center", "S_ADD2": "1 VA Center", "STA_NO": "509", "Type": "Support Clinic", "Unnamed: 9": null, "full_address": "VA Medical Center, Augusta, ME 4330", "latitude": 44.3610066, "longitude": -69.7847573 }, "geometry": { "type": "Point", "coordinates": [ -69.7847573, 44.3610066 ] } },
{ "type": "Feature", "properties": { "name": "Baltimore VAMC", "Facility Type": "VAMC", "S_CITY": "Baltimore", "State": "MD", "S_ZIP": 21201, "S_ADD1": "VA Medical Center", "S_ADD2": "10 North Greene Street", "STA_NO": "512", "Type": "Support Clinic", "Unnamed: 9": null, "full_address": "VA Medical Center, Baltimore, MD 21201", "latitude": 39.3357532, "longitude": -76.5957835 }, "geometry": { "type": "Point", "coordinates": [ -76.5957835, 39.3357532 ] } },
{ "type": "Feature", "properties": { "name": "Bath VAMC", "Facility Type": "VAMC", "S_CITY": "Bath", "State": "NY", "S_ZIP": 14810, "S_ADD1": "VA Medical Center", "S_ADD2": "76 Veterans Avenue", "STA_NO": "528A6", "Type": "Support Clinic", "Unnamed: 9": null, "full_address": "VA Medical Center, Bath, NY 14810", "latitude": 42.3460323, "longitude": -77.3473525 }, "geometry": { "type": "Point", "coordinates": [ -77.3473525, 42.3460323 ] } },
{ "type": "Feature", "properties": { "name": "Bay Pines VAMC", "Facility Type": "VAMC", "S_CITY": "Bay Pines", "State": "FL", "S_ZIP": 33744, "S_ADD1": "Bay Pines VA HCS", "S_ADD2": "10000 Bay Pines Blvd.", "STA_NO": "516", "Type": "Support Clinic", "Unnamed: 9": null, "full_address": "Bay Pines VA HCS, Bay Pines, FL 33744", "latitude": 27.824732, "longitude": -82.7726728 }, "geometry": { "type": "Point", "coordinates": [ -82.7726728, 27.824732 ] } },
{ "type": "Feature", "properties": { "name": "Biloxi VAMC", "Facility Type": "VAMC", "S_CITY": "Biloxi", "State": "MS", "S_ZIP": 39531, "S_ADD1": "Gulf Coast HCS", "S_ADD2": "400 Veterans Avenue", "STA_NO": "520", "Type": "Support Clinic", "Unnamed: 9": null, "full_address": "Gulf Coast HCS, Biloxi, MS 39531", "latitude": 30.4007626, "longitude": -88.8893818 }, "geometry": { "type": "Point", "coordinates": [ -88.8893818, 30.4007626 ] } },
{ "type": "Feature", "properties": { "name": "Boise VAMC", "Facility Type": "VAMC", "S_CITY": "Boise", "State": "ID", "S_ZIP": 83702, "S_ADD1": "VA Medical Center", "S_ADD2": "500 West Fort Street", "STA_NO": "531", "Type": "Support Clinic", "Unnamed: 9": null, "full_address": "VA Medical Center, Boise, ID 83702", "latitude": 43.620845, "longitude": -116.190599 }, "geometry": { "type": "Point", "coordinates": [ -116.190599, 43.620845 ] } },
{ "type": "Feature", "properties": { "name": "Birmingham VAMC", "Facility Type": "VAMC", "S_CITY": "Brimingham", "State": "AL", "S_ZIP": 35233, "S_ADD1": "VA Medical Center", "S_ADD2": "700 S. 19th Street", "STA_NO": "521", "Type": "Support Clinic", "Unnamed: 9": null, "full_address": "VA Medical Center, Brimingham, AL 35233", "latitude": 34.8092617, "longitude": -88.2586928 }, "geometry": { "type": "Point", "coordinates": [ -88.2586928, 34.8092617 ] } },
{ "type": "Feature", "properties": { "name": "Bronx VAMC", "Facility Type": "VAMC", "S_CITY": "Bronx", "State": "NY", "S_ZIP": 10468, "S_ADD1": "Bronx VA Medical Center", "S_ADD2": "130 West Kingsbridge Road", "STA_NO": "526", "Type": "Network Site", "Unnamed: 9": null, "full_address": "Bronx VA Medical Center, Bronx, NY 10468", "latitude": 40.8466508, "longitude": -73.8785937 }, "geometry": { "type": "Point", "coordinates": [ -73.8785937, 40.8466508 ] } },
{ "type": "Feature", "properties": { "name": "Brooklyn VAMC", "Facility Type": "VAMC", "S_CITY": "Brooklyn", "State": "NY", "S_ZIP": 11209, "S_ADD1": "NY Harbor HCS - Brooklyn", "S_ADD2": "800 Poly Place", "STA_NO": "630A4", "Type": "Support Clinic", "Unnamed: 9": null, "full_address": "NY Harbor HCS - Brooklyn, Brooklyn, NY 11209", "latitude": 40.6526006, "longitude": -73.9497211 }, "geometry": { "type": "Point", "coordinates": [ -73.9497211, 40.6526006 ] } },
{ "type": "Feature", "properties": { "name": "Buffalo VAMC", "Facility Type": "VAMC", "S_CITY": "Buffalo", "State": "NY", "S_ZIP": 14215, "S_ADD1": "Western NY HCS - Buffalo", "S_ADD2": "3495 Bailey Avenue", "STA_NO": "528", "Type": "Support Clinic", "Unnamed: 9": null, "full_address": "Western NY HCS - Buffalo, Buffalo, NY 14215", "latitude": 42.8867166, "longitude": -78.8783922 }, "geometry": { "type": "Point", "coordinates": [ -78.8783922, 42.8867166 ] } },
{ "type": "Feature", "properties": { "name": "Butler VAMC", "Facility Type": "VAMC", "S_CITY": "Butler", "State": "PA", "S_ZIP": 16001, "S_ADD1": "VA Medical Center", "S_ADD2": "325 New Castle Road", "STA_NO": "529", "Type": "Support Clinic", "Unnamed: 9": null, "full_address": "VA Medical Center, Butler, PA 16001", "latitude": 40.9370599, "longitude": -79.7573496 }, "geometry": { "type": "Point", "coordinates": [ -79.7573496, 40.9370599 ] } },
{ "type": "Feature", "properties": { "name": "Canandaigua VAMC", "Facility Type": "VAMC", "S_CITY": "Canandaigua", "State": "NY", "S_ZIP": 14424, "S_ADD1": "VA Medical Center", "S_ADD2": "400 Fort Hill Avenue", "STA_NO": "528A5", "Type": "Support Clinic", "Unnamed: 9": null, "full_address": "VA Medical Center, Canandaigua, NY 14424", "latitude": 42.901246, "longitude": -77.2696111 }, "geometry": { "type": "Point", "coordinates": [ -77.2696111, 42.901246 ] } },
{ "type": "Feature", "properties": { "name": "Castle Point VAMC", "Facility Type": "VAMC", "S_CITY": "Castle Point", "State": "NY", "S_ZIP": 12511, "S_ADD1": "Hudson Valley HCS - Castle Point", "S_ADD2": "Route 9D", "STA_NO": "620A4", "Type": "Support Clinic", "Unnamed: 9": null, "full_address": "Hudson Valley HCS - Castle Point, Castle Point, NY 12511", "latitude": 41.5462048, "longitude": -73.9595828 }, "geometry": { "type": "Point", "coordinates": [ -73.9595828, 41.5462048 ] } },
{ "type": "Feature", "properties": { "name": "Charleston VAMC", "Facility Type": "VAMC", "S_CITY": "Charleston", "State": "SC", "S_ZIP": 29401, "S_ADD1": "Ralph H. Johnson VAMC", "S_ADD2": "109 Bee Street", "STA_NO": "534", "Type": "Support Clinic", "Unnamed: 9": null, "full_address": "Ralph H. Johnson VAMC, Charleston, SC 29401", "latitude": 32.7884363, "longitude": -79.9399309 }, "geometry": { "type": "Point", "coordinates": [ -79.9399309, 32.7884363 ] } },
{ "type": "Feature", "properties": { "name": "Chicago VAMC", "Facility Type": "VAMC", "S_CITY": "Chicago", "State": "IL", "S_ZIP": 60612, "S_ADD1": "Jesse Brown VAMC", "S_ADD2": "820 South Damen Avenue", "STA_NO": "537", "Type": "Support Clinic", "Unnamed: 9": null, "full_address": "Jesse Brown VAMC, Chicago, IL 60612", "latitude": 41.8755616, "longitude": -87.6244212 }, "geometry": { "type": "Point", "coordinates": [ -87.6244212, 41.8755616 ] } },
{ "type": "Feature", "properties": { "name": "Cincinnati VAMC", "Facility Type": "VAMC", "S_CITY": "Cincinnati", "State": "OH", "S_ZIP": 45220, "S_ADD1": "VA Medical Center", "S_ADD2": "3200 Vine Street", "STA_NO": "539", "Type": "Support Clinic", "Unnamed: 9": null, "full_address": "VA Medical Center, Cincinnati, OH 45220", "latitude": 39.1388983, "longitude": -84.5085 }, "geometry": { "type": "Point", "coordinates": [ -84.5085, 39.1388983 ] } },
{ "type": "Feature", "properties": { "name": "Cleveland-Wade Park VAMC", "Facility Type": "VAMC", "S_CITY": "Cleveland", "State": "OH", "S_ZIP": 44106, "S_ADD1": "VA Medical Ctr.-Wade Park Div.", "S_ADD2": "10701 East Blvd", "STA_NO": "541", "Type": "Network Site", "Unnamed: 9": null, "full_address": "VA Medical Ctr.-Wade Park Div., Cleveland, OH 44106", "latitude": 41.4996574, "longitude": -81.6936772 }, "geometry": { "type": "Point", "coordinates": [ -81.6936772, 41.4996574 ] } },
{ "type": "Feature", "properties": { "name": "Coatesville VAMC", "Facility Type": "VAMC", "S_CITY": "Coatesville", "State": "PA", "S_ZIP": 19320, "S_ADD1": "VA Medical Center", "S_ADD2": "1400 Black Horse Hill Road", "STA_NO": "542", "Type": "Support Clinic", "Unnamed: 9": null, "full_address": "VA Medical Center, Coatesville, PA 19320", "latitude": 39.9994968, "longitude": -75.7960124 }, "geometry": { "type": "Point", "coordinates": [ -75.7960124, 39.9994968 ] } },
{ "type": "Feature", "properties": { "name": "Columbia VAMC", "Facility Type": "VAMC", "S_CITY": "Columbia", "State": "SC", "S_ZIP": 29209, "S_ADD1": "Wm. Jennings Bryan Dorn VAMC", "S_ADD2": "6439 Garners Ferry Road", "STA_NO": "544", "Type": "Support Clinic", "Unnamed: 9": null, "full_address": "Wm. Jennings Bryan Dorn VAMC, Columbia, SC 29209", "latitude": 34.000754, "longitude": -81.0352313 }, "geometry": { "type": "Point", "coordinates": [ -81.0352313, 34.000754 ] } },
{ "type": "Feature", "properties": { "name": "Dallas VAMC", "Facility Type": "VAMC", "S_CITY": "Dallas", "State": "TX", "S_ZIP": 75216, "S_ADD1": "Dallas VA Medical Center", "S_ADD2": "4500 S. Lancaster Road", "STA_NO": "549", "Type": "Network Site", "Unnamed: 9": null, "full_address": "Dallas VA Medical Center, Dallas, TX 75216", "latitude": 32.6946156, "longitude": -96.7888898 }, "geometry": { "type": "Point", "coordinates": [ -96.7888898, 32.6946156 ] } },
{ "type": "Feature", "properties": { "name": "Danville VAMC", "Facility Type": "VAMC", "S_CITY": "Danville", "State": "IL", "S_ZIP": 61832, "S_ADD1": "Iliana HCS", "S_ADD2": "1900 East Main Street", "STA_NO": "550", "Type": "Support Clinic", "Unnamed: 9": null, "full_address": "Iliana HCS, Danville, IL 61832", "latitude": 40.125222, "longitude": -87.6304614 }, "geometry": { "type": "Point", "coordinates": [ -87.6304614, 40.125222 ] } },
{ "type": "Feature", "properties": { "name": "Dayton VAMC", "Facility Type": "VAMC", "S_CITY": "Dayton", "State": "OH", "S_ZIP": 45428, "S_ADD1": "VA Medical Center", "S_ADD2": "4100 W. 3rd Street", "STA_NO": "552", "Type": "Support Clinic", "Unnamed: 9": null, "full_address": "VA Medical Center, Dayton, OH 45428", "latitude": 39.7428417, "longitude": -84.2607729 }, "geometry": { "type": "Point", "coordinates": [ -84.2607729, 39.7428417 ] } },
{ "type": "Feature", "properties": { "name": "Atlanta VAMC", "Facility Type": "VAMC", "S_CITY": "Decatur", "State": "GA", "S_ZIP": 30033, "S_ADD1": "VA Medical Center", "S_ADD2": "1670 Clairmont Road", "STA_NO": "508", "Type": "Support Clinic", "Unnamed: 9": null, "full_address": "VA Medical Center, Decatur, GA 30033", "latitude": 33.8016558, "longitude": -84.3116313 }, "geometry": { "type": "Point", "coordinates": [ -84.3116313, 33.8016558 ] } },
{ "type": "Feature", "properties": { "name": "Eastern Colorado HCS VAMC", "Facility Type": "VAMC", "S_CITY": "Denver", "State": "CO", "S_ZIP": 80220, "S_ADD1": "VA Medical Center", "S_ADD2": "1055 Clermont Street", "STA_NO": "554", "Type": "Network Site", "Unnamed: 9": null, "full_address": "VA Medical Center, Denver, CO 80220", "latitude": 39.7324184, "longitude": -104.9363253 }, "geometry": { "type": "Point", "coordinates": [ -104.9363253, 39.7324184 ] } },
{ "type": "Feature", "properties": { "name": "Detroit VAMC", "Facility Type": "VAMC", "S_CITY": "Detroit", "State": "MI", "S_ZIP": 48201, "S_ADD1": "John D. Dingell VAMC", "S_ADD2": "4646 John R", "STA_NO": "553", "Type": "Support Clinic", "Unnamed: 9": null, "full_address": "John D. Dingell VAMC, Detroit, MI 48201", "latitude": 42.3315509, "longitude": -83.0466403 }, "geometry": { "type": "Point", "coordinates": [ -83.0466403, 42.3315509 ] } },
{ "type": "Feature", "properties": { "name": "Durham VAMC", "Facility Type": "VAMC", "S_CITY": "Durham", "State": "NC", "S_ZIP": 27705, "S_ADD1": "VA Medical Center", "S_ADD2": "508 Fulton Street", "STA_NO": "558", "Type": "Support Clinic", "Unnamed: 9": null, "full_address": "VA Medical Center, Durham, NC 27705", "latitude": 35.996653, "longitude": -78.9018053 }, "geometry": { "type": "Point", "coordinates": [ -78.9018053, 35.996653 ] } },
{ "type": "Feature", "properties": { "name": "East Orange VAMC", "Facility Type": "VAMC", "S_CITY": "East Orange", "State": "NJ", "S_ZIP": 7018, "S_ADD1": "NJ HCS - East Orange", "S_ADD2": "385 Tremont Avenue", "STA_NO": "561", "Type": "Support Clinic", "Unnamed: 9": null, "full_address": "NJ HCS - East Orange, East Orange, NJ 7018", "latitude": 40.7642404, "longitude": -74.215011 }, "geometry": { "type": "Point", "coordinates": [ -74.215011, 40.7642404 ] } },
{ "type": "Feature", "properties": { "name": "Erie VAMC", "Facility Type": "VAMC", "S_CITY": "Erie", "State": "PA", "S_ZIP": 16504, "S_ADD1": "VA Medical Center", "S_ADD2": "135 East 38 Street", "STA_NO": "562", "Type": "Support Clinic", "Unnamed: 9": null, "full_address": "VA Medical Center, Erie, PA 16504", "latitude": 42.1024706, "longitude": -80.0640388 }, "geometry": { "type": "Point", "coordinates": [ -80.0640388, 42.1024706 ] } },
{ "type": "Feature", "properties": { "name": "Fayetteville VAMC", "Facility Type": "VAMC", "S_CITY": "Fayetteville", "State": "AR", "S_ZIP": 72703, "S_ADD1": "VA HCS of the Ozarks", "S_ADD2": "1100 N. College Avenue", "STA_NO": "564", "Type": "Support Clinic", "Unnamed: 9": null, "full_address": "VA HCS of the Ozarks, Fayetteville, AR 72703", "latitude": 36.0625843, "longitude": -94.1574328 }, "geometry": { "type": "Point", "coordinates": [ -94.1574328, 36.0625843 ] } },
{ "type": "Feature", "properties": { "name": "Gainesville VAMC", "Facility Type": "VAMC", "S_CITY": "Gainesville", "State": "FL", "S_ZIP": 32608, "S_ADD1": "Malcom Randall VAMC", "S_ADD2": "1601 S.W. Archer Road", "STA_NO": "573", "Type": "Support Clinic", "Unnamed: 9": null, "full_address": "Malcom Randall VAMC, Gainesville, FL 32608", "latitude": 29.6519684, "longitude": -82.3249846 }, "geometry": { "type": "Point", "coordinates": [ -82.3249846, 29.6519684 ] } },
{ "type": "Feature", "properties": { "name": "Grand Junction VAMC", "Facility Type": "VAMC", "S_CITY": "Grand Junction", "State": "CO", "S_ZIP": 81501, "S_ADD1": "VA Medical Center", "S_ADD2": "2121 North Avenue", "STA_NO": "575", "Type": "Support Clinic", "Unnamed: 9": null, "full_address": "VA Medical Center, Grand Junction, CO 81501", "latitude": 39.0756707, "longitude": -108.5414848 }, "geometry": { "type": "Point", "coordinates": [ -108.5414848, 39.0756707 ] } },
{ "type": "Feature", "properties": { "name": "Hampton VAMC", "Facility Type": "VAMC", "S_CITY": "Hampton", "State": "VA", "S_ZIP": 23667, "S_ADD1": "VA Medical Center", "S_ADD2": "100 Emancipation Drive", "STA_NO": "590", "Type": "Support Clinic", "Unnamed: 9": null, "full_address": "VA Medical Center, Hampton, VA 23667", "latitude": 37.0169734, "longitude": -76.3321083 }, "geometry": { "type": "Point", "coordinates": [ -76.3321083, 37.0169734 ] } },
{ "type": "Feature", "properties": { "name": "Hines VAMC", "Facility Type": "VAMC", "S_CITY": "Hines", "State": "IL", "S_ZIP": 60141, "S_ADD1": "Edward Hines, Jr. Hospital", "S_ADD2": "5th Street & Roosevelt Avenue", "STA_NO": "578", "Type": "Network Site", "Unnamed: 9": null, "full_address": "Edward Hines, Jr. Hospital, Hines, IL 60141", "latitude": 41.8536425, "longitude": -87.8395035 }, "geometry": { "type": "Point", "coordinates": [ -87.8395035, 41.8536425 ] } },
{ "type": "Feature", "properties": { "name": "Houston VAMC", "Facility Type": "VAMC", "S_CITY": "Houston", "State": "TX", "S_ZIP": 77030, "S_ADD1": "VA Medical Center", "S_ADD2": "2002 Holcombe Blvd.", "STA_NO": "580", "Type": "Network Site", "Unnamed: 9": null, "full_address": "VA Medical Center, Houston, TX 77030", "latitude": 29.7018721, "longitude": -95.388855 }, "geometry": { "type": "Point", "coordinates": [ -95.388855, 29.7018721 ] } },
{ "type": "Feature", "properties": { "name": "Huntington VAMC", "Facility Type": "VAMC", "S_CITY": "Huntington", "State": "WV", "S_ZIP": 25704, "S_ADD1": "VA Medical Center", "S_ADD2": "1540 Spring Valley Drive", "STA_NO": "581", "Type": "Support Clinic", "Unnamed: 9": null, "full_address": "VA Medical Center, Huntington, WV 25704", "latitude": 38.4077821, "longitude": -82.4277887 }, "geometry": { "type": "Point", "coordinates": [ -82.4277887, 38.4077821 ] } },
{ "type": "Feature", "properties": { "name": "Pittsburgh VAMC", "Facility Type": "VAMC", "S_CITY": "Pittsburgh", "State": "PA", "S_ZIP": 15206, "S_ADD1": "VA Medical Center", "S_ADD2": "7180 Highland Drive", "STA_NO": "646", "Type": "Support Clinic", "Unnamed: 9": null, "full_address": "VA Medical Center, Pittsburgh, PA 15206", "latitude": 40.4416941, "longitude": -79.9900861 }, "geometry": { "type": "Point", "coordinates": [ -79.9900861, 40.4416941 ] } },
{ "type": "Feature", "properties": { "name": "Indianapolis VAMC", "Facility Type": "VAMC", "S_CITY": "Indianapolis", "State": "IN", "S_ZIP": 46202, "S_ADD1": "Richard L. Roudebush VA Med. Cntr.", "S_ADD2": "1481 W. Tenth Street", "STA_NO": "583", "Type": "Network Site", "Unnamed: 9": null, "full_address": "Richard L. Roudebush VA Med. Cntr., Indianapolis, IN 46202", "latitude": 39.7683331, "longitude": -86.1583502 }, "geometry": { "type": "Point", "coordinates": [ -86.1583502, 39.7683331 ] } },
{ "type": "Feature", "properties": { "name": "Iowa City VAMC", "Facility Type": "VAMC", "S_CITY": "Iowa City", "State": "IA", "S_ZIP": 52246, "S_ADD1": "VA Medical Center", "S_ADD2": "601 Highway 6 West", "STA_NO": "636A8", "Type": "Support Clinic", "Unnamed: 9": null, "full_address": "VA Medical Center, Iowa City, IA 52246", "latitude": 41.6638173, "longitude": -91.5477587 }, "geometry": { "type": "Point", "coordinates": [ -91.5477587, 41.6638173 ] } },
{ "type": "Feature", "properties": { "name": "Jackson VAMC", "Facility Type": "VAMC", "S_CITY": "Jackson", "State": "MS", "S_ZIP": 39216, "S_ADD1": "G. V. (Sonny) Montgomery VAMC", "S_ADD2": "1500 E. Woodrow Wilson Drive", "STA_NO": "586", "Type": "Support Clinic", "Unnamed: 9": null, "full_address": "G. V. (Sonny) Montgomery VAMC, Jackson, MS 39216", "latitude": 32.2998686, "longitude": -90.1830408 }, "geometry": { "type": "Point", "coordinates": [ -90.1830408, 32.2998686 ] } },
{ "type": "Feature", "properties": { "name": "Kansas City VAMC", "Facility Type": "VAMC", "S_CITY": "Kansas City", "State": "MO", "S_ZIP": 64128, "S_ADD1": "VA Medical Center", "S_ADD2": "4801 Linwood Boulevard", "STA_NO": "589", "Type": "Support Clinic", "Unnamed: 9": null, "full_address": "VA Medical Center, Kansas City, MO 64128", "latitude": 39.064133, "longitude": -94.5275899 }, "geometry": { "type": "Point", "coordinates": [ -94.5275899, 39.064133 ] } },
{ "type": "Feature", "properties": { "name": "Lebanon VAMC", "Facility Type": "VAMC", "S_CITY": "Lebanon", "State": "PA", "S_ZIP": 17042, "S_ADD1": "VA Medical Center", "S_ADD2": "1700 South Lincoln Avenue", "STA_NO": "595", "Type": "Support Clinic", "Unnamed: 9": null, "full_address": "VA Medical Center, Lebanon, PA 17042", "latitude": 40.3176129, "longitude": -76.396849 }, "geometry": { "type": "Point", "coordinates": [ -76.396849, 40.3176129 ] } },
{ "type": "Feature", "properties": { "name": "Northampton VAMC", "Facility Type": "VAMC", "S_CITY": "Leeds", "State": "MA", "S_ZIP": 1053, "S_ADD1": "VA Medical Center", "S_ADD2": "421 North Main Street", "STA_NO": "631", "Type": "Support Clinic", "Unnamed: 9": null, "full_address": "VA Medical Center, Leeds, MA 1053", "latitude": 42.351288, "longitude": -72.682175 }, "geometry": { "type": "Point", "coordinates": [ -72.682175, 42.351288 ] } },
{ "type": "Feature", "properties": { "name": "Lexington-Cooper Dr VAMC", "Facility Type": "VAMC", "S_CITY": "Lexington", "State": "KY", "S_ZIP": 40502, "S_ADD1": "VA Medical Center", "S_ADD2": "1101 Veterans Drive", "STA_NO": "596", "Type": "Network Site", "Unnamed: 9": null, "full_address": "VA Medical Center, Lexington, KY 40502", "latitude": 38.0297516, "longitude": -84.5066808 }, "geometry": { "type": "Point", "coordinates": [ -84.5066808, 38.0297516 ] } },
{ "type": "Feature", "properties": { "name": "Little Rock VAMC", "Facility Type": "VAMC", "S_CITY": "Little Rock", "State": "AR", "S_ZIP": 72205, "S_ADD1": "Central Arkansas HCS", "S_ADD2": "4300 West 7th Street", "STA_NO": "598", "Type": "Support Clinic", "Unnamed: 9": null, "full_address": "Central Arkansas HCS, Little Rock, AR 72205", "latitude": 34.7465071, "longitude": -92.2896267 }, "geometry": { "type": "Point", "coordinates": [ -92.2896267, 34.7465071 ] } },
{ "type": "Feature", "properties": { "name": "Loma Linda VAMC", "Facility Type": "VAMC", "S_CITY": "Loma Linda", "State": "CA", "S_ZIP": 92357, "S_ADD1": "Loma Linda HCS", "S_ADD2": "11201 Benton Street", "STA_NO": "605", "Type": "Support Clinic", "Unnamed: 9": null, "full_address": "Loma Linda HCS, Loma Linda, CA 92357", "latitude": 34.0537971, "longitude": -117.2610925 }, "geometry": { "type": "Point", "coordinates": [ -117.2610925, 34.0537971 ] } },
{ "type": "Feature", "properties": { "name": "Long Beach VAMC", "Facility Type": "VAMC", "S_CITY": "Long Beach", "State": "CA", "S_ZIP": 90822, "S_ADD1": "Long Beach HCS", "S_ADD2": "5901 E. 7th Street", "STA_NO": "600", "Type": "Support Clinic", "Unnamed: 9": null, "full_address": "Long Beach HCS, Long Beach, CA 90822", "latitude": 33.7690164, "longitude": -118.191604 }, "geometry": { "type": "Point", "coordinates": [ -118.191604, 33.7690164 ] } },
{ "type": "Feature", "properties": { "name": "Louisville VAMC", "Facility Type": "VAMC", "S_CITY": "Louisville", "State": "KY", "S_ZIP": 40206, "S_ADD1": "Robley Rex VAMC", "S_ADD2": "800 Zorn Avenue", "STA_NO": "603", "Type": "Support Clinic", "Unnamed: 9": null, "full_address": "Robley Rex VAMC, Louisville, KY 40206", "latitude": 38.2542376, "longitude": -85.759407 }, "geometry": { "type": "Point", "coordinates": [ -85.759407, 38.2542376 ] } },
{ "type": "Feature", "properties": { "name": "Lyons VAMC", "Facility Type": "VAMC", "S_CITY": "Lyons", "State": "NJ", "S_ZIP": 7939, "S_ADD1": "NJ HCS - Lyons", "S_ADD2": "151 Knollcroft Road", "STA_NO": "561A4", "Type": "Support Clinic", "Unnamed: 9": null, "full_address": "NJ HCS - Lyons, Lyons, NJ 7939", "latitude": 40.6847817, "longitude": -74.5495723 }, "geometry": { "type": "Point", "coordinates": [ -74.5495723, 40.6847817 ] } },
{ "type": "Feature", "properties": { "name": "Madison VAMC", "Facility Type": "VAMC", "S_CITY": "Madison", "State": "WI", "S_ZIP": 53705, "S_ADD1": "William S. Middleton VAMC", "S_ADD2": "2500 Overlook Terrace", "STA_NO": "607", "Type": "Support Clinic", "Unnamed: 9": null, "full_address": "William S. Middleton VAMC, Madison, WI 53705", "latitude": 43.07469, "longitude": -89.3841663 }, "geometry": { "type": "Point", "coordinates": [ -89.3841663, 43.07469 ] } },
{ "type": "Feature", "properties": { "name": "Martinsburg VAMC", "Facility Type": "VAMC", "S_CITY": "Martinsburg", "State": "WV", "S_ZIP": 25405, "S_ADD1": "VA Medical Center", "S_ADD2": "510 Butler Avenue", "STA_NO": "613", "Type": "Support Clinic", "Unnamed: 9": null, "full_address": "VA Medical Center, Martinsburg, WV 25405", "latitude": 39.4562528, "longitude": -77.9639604 }, "geometry": { "type": "Point", "coordinates": [ -77.9639604, 39.4562528 ] } },
{ "type": "Feature", "properties": { "name": "Memphis VAMC", "Facility Type": "VAMC", "S_CITY": "Memphis", "State": "TN", "S_ZIP": 38104, "S_ADD1": "VA Medical Center", "S_ADD2": "1030 Jefferson Avenue", "STA_NO": "614", "Type": "Support Clinic", "Unnamed: 9": null, "full_address": "VA Medical Center, Memphis, TN 38104", "latitude": 35.1431425, "longitude": -90.0239062 }, "geometry": { "type": "Point", "coordinates": [ -90.0239062, 35.1431425 ] } },
{ "type": "Feature", "properties": { "name": "Miami VAMC", "Facility Type": "VAMC", "S_CITY": "Miami", "State": "FL", "S_ZIP": 33125, "S_ADD1": "Miami VA HCS", "S_ADD2": "1201 N.W. 16th Street", "STA_NO": "546", "Type": "Support Clinic", "Unnamed: 9": null, "full_address": "Miami VA HCS, Miami, FL 33125", "latitude": 25.7741566, "longitude": -80.1935973 }, "geometry": { "type": "Point", "coordinates": [ -80.1935973, 25.7741566 ] } },
{ "type": "Feature", "properties": { "name": "Milwaukee VAMC", "Facility Type": "VAMC", "S_CITY": "Milwaukee", "State": "WI", "S_ZIP": 53295, "S_ADD1": "Clement J. Zablocki VAMC", "S_ADD2": "5000 West National Avenue", "STA_NO": "695", "Type": "Support Clinic", "Unnamed: 9": null, "full_address": "Clement J. Zablocki VAMC, Milwaukee, WI 53295", "latitude": 43.0386475, "longitude": -87.9090751 }, "geometry": { "type": "Point", "coordinates": [ -87.9090751, 43.0386475 ] } },
{ "type": "Feature", "properties": { "name": "Minneapolis VAMC", "Facility Type": "VAMC", "S_CITY": "Minneapolis", "State": "MN", "S_ZIP": 55417, "S_ADD1": "VA Medical Center", "S_ADD2": "One Veterans Drive", "STA_NO": "618", "Type": "Rehab Center", "Unnamed: 9": null, "full_address": "VA Medical Center, Minneapolis, MN 55417", "latitude": 44.9030439, "longitude": -93.2049903 }, "geometry": { "type": "Point", "coordinates": [ -93.2049903, 44.9030439 ] } },
{ "type": "Feature", "properties": { "name": "Montrose VAMC", "Facility Type": "VAMC", "S_CITY": "Montrose", "State": "NY", "S_ZIP": 10548, "S_ADD1": "Hudson Valley HCS - Montrose", "S_ADD2": "2094 Albany Post Rd., Route 9A", "STA_NO": "620", "Type": "Support Clinic", "Unnamed: 9": null, "full_address": "Hudson Valley HCS - Montrose, Montrose, NY 10548", "latitude": 41.242108, "longitude": -73.9458713 }, "geometry": { "type": "Point", "coordinates": [ -73.9458713, 41.242108 ] } },
{ "type": "Feature", "properties": { "name": "Mountain Home VAMC", "Facility Type": "VAMC", "S_CITY": "Mountain Home", "State": "TN", "S_ZIP": 37684, "S_ADD1": "VA Medical Center", "S_ADD2": "Corner-Lamont St. & Veterans Way", "STA_NO": "621", "Type": "Support Clinic", "Unnamed: 9": null, "full_address": "VA Medical Center, Mountain Home, TN 37684", "latitude": 48.9121343, "longitude": -120.7737772 }, "geometry": { "type": "Point", "coordinates": [ -120.7737772, 48.9121343 ] } },
{ "type": "Feature", "properties": { "name": "Murfreesboro VAMC", "Facility Type": "VAMC", "S_CITY": "Murfreesboro", "State": "TN", "S_ZIP": 37129, "S_ADD1": "Tennessee Valley HCS - Murfreesboro", "S_ADD2": "3400 Lebanon Pike", "STA_NO": "626A4", "Type": "Support Clinic", "Unnamed: 9": null, "full_address": "Tennessee Valley HCS - Murfreesboro, Murfreesboro, TN 37129", "latitude": 35.8460396, "longitude": -86.3921096 }, "geometry": { "type": "Point", "coordinates": [ -86.3921096, 35.8460396 ] } },
{ "type": "Feature", "properties": { "name": "Muskogee VAMC", "Facility Type": "VAMC", "S_CITY": "Muskogee", "State": "OK", "S_ZIP": 74401, "S_ADD1": "Jack C. Montgomery VAMC", "S_ADD2": "1011 Honor Heights Drive", "STA_NO": "623", "Type": "Support Clinic", "Unnamed: 9": null, "full_address": "Jack C. Montgomery VAMC, Muskogee, OK 74401", "latitude": 35.6630196, "longitude": -95.3927706 }, "geometry": { "type": "Point", "coordinates": [ -95.3927706, 35.6630196 ] } },
{ "type": "Feature", "properties": { "name": "Nashville VAMC", "Facility Type": "VAMC", "S_CITY": "Nashville", "State": "TN", "S_ZIP": 37212, "S_ADD1": "Tennessee Valley HCS - Nashville", "S_ADD2": "1310 24th Avenue South", "STA_NO": "626", "Type": "Support Clinic", "Unnamed: 9": null, "full_address": "Tennessee Valley HCS - Nashville, Nashville, TN 37212", "latitude": 36.1622767, "longitude": -86.7742984 }, "geometry": { "type": "Point", "coordinates": [ -86.7742984, 36.1622767 ] } },
{ "type": "Feature", "properties": { "name": "Manhatten VAMC", "Facility Type": "VAMC", "S_CITY": "New York", "State": "NY", "S_ZIP": 10010, "S_ADD1": "NY Harbor HCS - Manhatten", "S_ADD2": "423 East 23rd Street", "STA_NO": "630", "Type": "Support Clinic", "Unnamed: 9": null, "full_address": "NY Harbor HCS - Manhatten, New York, NY 10010", "latitude": 40.7127281, "longitude": -74.0060152 }, "geometry": { "type": "Point", "coordinates": [ -74.0060152, 40.7127281 ] } },
{ "type": "Feature", "properties": { "name": "North Chicago VAMC", "Facility Type": "VAMC", "S_CITY": "North Chicago", "State": "IL", "S_ZIP": 60064, "S_ADD1": "VA Medical Center", "S_ADD2": "3001 Green Bay Road", "STA_NO": "556", "Type": "Support Clinic", "Unnamed: 9": null, "full_address": "VA Medical Center, North Chicago, IL 60064", "latitude": 42.3053636, "longitude": -87.8582642 }, "geometry": { "type": "Point", "coordinates": [ -87.8582642, 42.3053636 ] } },
{ "type": "Feature", "properties": { "name": "Northport VAMC", "Facility Type": "VAMC", "S_CITY": "Northport", "State": "NY", "S_ZIP": 11768, "S_ADD1": "VA Medical Center", "S_ADD2": "79 Middleville Road", "STA_NO": "632", "Type": "Support Clinic", "Unnamed: 9": null, "full_address": "VA Medical Center, Northport, NY 11768", "latitude": 40.9009595, "longitude": -73.343167 }, "geometry": { "type": "Point", "coordinates": [ -73.343167, 40.9009595 ] } },
{ "type": "Feature", "properties": { "name": "Oklahoma City VAMC", "Facility Type": "VAMC", "S_CITY": "Oklahoma City", "State": "OK", "S_ZIP": 73104, "S_ADD1": "VA Medical Center", "S_ADD2": "921 N.E. 13th Street", "STA_NO": "635", "Type": "Support Clinic", "Unnamed: 9": null, "full_address": "VA Medical Center, Oklahoma City, OK 73104", "latitude": 35.4838653, "longitude": -97.4994737 }, "geometry": { "type": "Point", "coordinates": [ -97.4994737, 35.4838653 ] } },
{ "type": "Feature", "properties": { "name": "Palo Alto-Palo Alto VAMC", "Facility Type": "VAMC", "S_CITY": "Palo Alto", "State": "CA", "S_ZIP": 94304, "S_ADD1": "VA Palo Alto HCS-VAMC Palo Alto, CA DIv.", "S_ADD2": "3801 Miranda Avenue", "STA_NO": "640", "Type": "Rehab Center", "Unnamed: 9": null, "full_address": "VA Palo Alto HCS-VAMC Palo Alto, CA DIv., Palo Alto, CA 94304", "latitude": 37.4443293, "longitude": -122.1598465 }, "geometry": { "type": "Point", "coordinates": [ -122.1598465, 37.4443293 ] } },
{ "type": "Feature", "properties": { "name": "Philadelphia VAMC", "Facility Type": "VAMC", "S_CITY": "Philadelphia", "State": "PA", "S_ZIP": 19104, "S_ADD1": "VA Medical Center", "S_ADD2": "3900 Woodland Avenue", "STA_NO": "642", "Type": "Network Site", "Unnamed: 9": null, "full_address": "VA Medical Center, Philadelphia, PA 19104", "latitude": 39.9487991, "longitude": -75.2007493 }, "geometry": { "type": "Point", "coordinates": [ -75.2007493, 39.9487991 ] } },
{ "type": "Feature", "properties": { "name": "Alexandria VAMC", "Facility Type": "VAMC", "S_CITY": "Pineville", "State": "LA", "S_ZIP": 72360, "S_ADD1": "VA Medical Center", "S_ADD2": "2495 Shreveport Hwy. 71 North", "STA_NO": "502", "Type": "Support Clinic", "Unnamed: 9": null, "full_address": "VA Medical Center, Pineville, LA 72360", "latitude": 31.3224044, "longitude": -92.4343035 }, "geometry": { "type": "Point", "coordinates": [ -92.4343035, 31.3224044 ] } },
{ "type": "Feature", "properties": { "name": "Portland VAMC", "Facility Type": "VAMC", "S_CITY": "Portland", "State": "OR", "S_ZIP": 97239, "S_ADD1": "VA Medical Center", "S_ADD2": "3710 SW U.S. Veterans Hospital Rd.", "STA_NO": "648", "Type": "Support Clinic", "Unnamed: 9": null, "full_address": "VA Medical Center, Portland, OR 97239", "latitude": 45.4964644, "longitude": -122.6828792 }, "geometry": { "type": "Point", "coordinates": [ -122.6828792, 45.4964644 ] } },
{ "type": "Feature", "properties": { "name": "Richmond VAMC", "Facility Type": "VAMC", "S_CITY": "Richmond", "State": "VA", "S_ZIP": 23249, "S_ADD1": "VA Medical Center", "S_ADD2": "1201 Broad Rock Boulevard", "STA_NO": "652", "Type": "Rehab Center", "Unnamed: 9": null, "full_address": "VA Medical Center, Richmond, VA 23249", "latitude": 37.4963453, "longitude": -77.4656428 }, "geometry": { "type": "Point", "coordinates": [ -77.4656428, 37.4963453 ] } },
{ "type": "Feature", "properties": { "name": "Salisbury VAMC", "Facility Type": "VAMC", "S_CITY": "Salisbury", "State": "NC", "S_ZIP": 28114, "S_ADD1": "W. G. Hefner VAMC", "S_ADD2": "1601 Brenner Avenue", "STA_NO": "659", "Type": "Support Clinic", "Unnamed: 9": null, "full_address": "W. G. Hefner VAMC, Salisbury, NC 28114", "latitude": 35.6709727, "longitude": -80.4742261 }, "geometry": { "type": "Point", "coordinates": [ -80.4742261, 35.6709727 ] } },
{ "type": "Feature", "properties": { "name": "Salt Lake City VAMC", "Facility Type": "VAMC", "S_CITY": "Salt Lake City", "State": "UT", "S_ZIP": 84148, "S_ADD1": "Salt Lake City HCS", "S_ADD2": "500 Foothill Drive", "STA_NO": "660", "Type": "Support Clinic", "Unnamed: 9": null, "full_address": "Salt Lake City HCS, Salt Lake City, UT 84148", "latitude": 40.7596198, "longitude": -111.886797 }, "geometry": { "type": "Point", "coordinates": [ -111.886797, 40.7596198 ] } },
{ "type": "Feature", "properties": { "name": "San Antonio VAMC", "Facility Type": "VAMC", "S_CITY": "San Antonio", "State": "TX", "S_ZIP": 78229, "S_ADD1": "South Texas HCS", "S_ADD2": "7400 Merton Minter Blvd.", "STA_NO": "671", "Type": "Support Clinic", "Unnamed: 9": null, "full_address": "South Texas HCS, San Antonio, TX 78229", "latitude": 29.4246002, "longitude": -98.4951405 }, "geometry": { "type": "Point", "coordinates": [ -98.4951405, 29.4246002 ] } },
{ "type": "Feature", "properties": { "name": "San Diego VAMC", "Facility Type": "VAMC", "S_CITY": "San Diego", "State": "CA", "S_ZIP": 92161, "S_ADD1": "San Diego HCS", "S_ADD2": "3350 La Jolla Village Drive", "STA_NO": "664", "Type": "Support Clinic", "Unnamed: 9": null, "full_address": "San Diego HCS, San Diego, CA 92161", "latitude": 32.7174202, "longitude": -117.162772 }, "geometry": { "type": "Point", "coordinates": [ -117.162772, 32.7174202 ] } },
{ "type": "Feature", "properties": { "name": "San Francisco VAMC", "Facility Type": "VAMC", "S_CITY": "San Francisco", "State": "CA", "S_ZIP": 94121, "S_ADD1": "VA Medical Center", "S_ADD2": "4150 Clement Street", "STA_NO": "662", "Type": "Support Clinic", "Unnamed: 9": null, "full_address": "VA Medical Center, San Francisco, CA 94121", "latitude": 37.7824221, "longitude": -122.5054093 }, "geometry": { "type": "Point", "coordinates": [ -122.5054093, 37.7824221 ] } },
{ "type": "Feature", "properties": { "name": "Seattle VAMC", "Facility Type": "VAMC", "S_CITY": "Seattle", "State": "WA", "S_ZIP": 98108, "S_ADD1": "Puget Sound HCS-Seattle Division", "S_ADD2": "1660 S. Columbian Way", "STA_NO": "663", "Type": "Network Site", "Unnamed: 9": null, "full_address": "Puget Sound HCS-Seattle Division, Seattle, WA 98108", "latitude": 47.6038321, "longitude": -122.330062 }, "geometry": { "type": "Point", "coordinates": [ -122.330062, 47.6038321 ] } },
{ "type": "Feature", "properties": { "name": "Shreveport VAMC", "Facility Type": "VAMC", "S_CITY": "Shreveport", "State": "LA", "S_ZIP": 71101, "S_ADD1": "Overton Brooks VAMC", "S_ADD2": "510 E. Stoner Ave.", "STA_NO": "667", "Type": "Support Clinic", "Unnamed: 9": null, "full_address": "Overton Brooks VAMC, Shreveport, LA 71101", "latitude": 32.5135356, "longitude": -93.7477839 }, "geometry": { "type": "Point", "coordinates": [ -93.7477839, 32.5135356 ] } },
{ "type": "Feature", "properties": { "name": "Sioux Falls VAMC", "Facility Type": "VAMC", "S_CITY": "Sioux Falls", "State": "SD", "S_ZIP": 57117, "S_ADD1": "VA Medical Center", "S_ADD2": "2501 W. 22nd Street, PO Box 5046", "STA_NO": "438", "Type": "Support Clinic", "Unnamed: 9": null, "full_address": "VA Medical Center, Sioux Falls, SD 57117", "latitude": 43.5476008, "longitude": -96.7293629 }, "geometry": { "type": "Point", "coordinates": [ -96.7293629, 43.5476008 ] } },
{ "type": "Feature", "properties": { "name": "St. Cloud VAMC", "Facility Type": "VAMC", "S_CITY": "St. Cloud", "State": "MN", "S_ZIP": 56303, "S_ADD1": "VA Medical Center", "S_ADD2": "4801 Veterans Drive", "STA_NO": "656", "Type": "Support Clinic", "Unnamed: 9": null, "full_address": "VA Medical Center, St. Cloud, MN 56303", "latitude": 45.5616075, "longitude": -94.1642004 }, "geometry": { "type": "Point", "coordinates": [ -94.1642004, 45.5616075 ] } },
{ "type": "Feature", "properties": { "name": "St Louis-Jeff Bks. VAMC", "Facility Type": "VAMC", "S_CITY": "St. Louis", "State": "MO", "S_ZIP": 63125, "S_ADD1": "VA Medical Center", "S_ADD2": "1 Jefferson Barracks Drive", "STA_NO": "657", "Type": "Network Site", "Unnamed: 9": null, "full_address": "VA Medical Center, St. Louis, MO 63125", "latitude": 38.6426715, "longitude": -90.2315275 }, "geometry": { "type": "Point", "coordinates": [ -90.2315275, 38.6426715 ] } },
{ "type": "Feature", "properties": { "name": "Syracuse VAMC", "Facility Type": "VAMC", "S_CITY": "Syracuse", "State": "NY", "S_ZIP": 13210, "S_ADD1": "VA Medical Center", "S_ADD2": "800 Irving Avenue", "STA_NO": "528A7", "Type": "Network Site", "Unnamed: 9": null, "full_address": "VA Medical Center, Syracuse, NY 13210", "latitude": 43.038521, "longitude": -76.139062 }, "geometry": { "type": "Point", "coordinates": [ -76.139062, 43.038521 ] } },
{ "type": "Feature", "properties": { "name": "Tampa VAMC", "Facility Type": "VAMC", "S_CITY": "Tampa", "State": "FL", "S_ZIP": 33612, "S_ADD1": "James A. Haley VA Medical Center", "S_ADD2": "13000 Bruce B Downs Blvd.", "STA_NO": "673", "Type": "Rehab Center", "Unnamed: 9": null, "full_address": "James A. Haley VA Medical Center, Tampa, FL 33612", "latitude": 27.9449854, "longitude": -82.4583107 }, "geometry": { "type": "Point", "coordinates": [ -82.4583107, 27.9449854 ] } },
{ "type": "Feature", "properties": { "name": "Temple VAMC", "Facility Type": "VAMC", "S_CITY": "Temple", "State": "TX", "S_ZIP": 76504, "S_ADD1": "Central Texas HCS", "S_ADD2": "1901 Veterans Memorial Drive", "STA_NO": "674", "Type": "Support Clinic", "Unnamed: 9": null, "full_address": "Central Texas HCS, Temple, TX 76504", "latitude": 31.0983747, "longitude": -97.3429563 }, "geometry": { "type": "Point", "coordinates": [ -97.3429563, 31.0983747 ] } },
{ "type": "Feature", "properties": { "name": "Tomah VAMC", "Facility Type": "VAMC", "S_CITY": "Tomah", "State": "WI", "S_ZIP": 54660, "S_ADD1": "VA Medical Center", "S_ADD2": "500 E. Veterans Street", "STA_NO": "676", "Type": "Support Clinic", "Unnamed: 9": null, "full_address": "VA Medical Center, Tomah, WI 54660", "latitude": 44.0051896, "longitude": -90.4923458 }, "geometry": { "type": "Point", "coordinates": [ -90.4923458, 44.0051896 ] } },
{ "type": "Feature", "properties": { "name": "S. Arizona HCS VAMC", "Facility Type": "VAMC", "S_CITY": "Tucson", "State": "AZ", "S_ZIP": 85723, "S_ADD1": "VA Medical Center", "S_ADD2": "3601 South Sixth Avenue", "STA_NO": "678", "Type": "Network Site", "Unnamed: 9": null, "full_address": "VA Medical Center, Tucson, AZ 85723", "latitude": 32.2228765, "longitude": -110.974847 }, "geometry": { "type": "Point", "coordinates": [ -110.974847, 32.2228765 ] } },
{ "type": "Feature", "properties": { "name": "Tuscaloosa VAMC", "Facility Type": "VAMC", "S_CITY": "Tuscaloosa", "State": "AL", "S_ZIP": 35404, "S_ADD1": "VA Medical Center", "S_ADD2": "3701 Loop Road, East", "STA_NO": "679", "Type": "Support Clinic", "Unnamed: 9": null, "full_address": "VA Medical Center, Tuscaloosa, AL 35404", "latitude": 33.1899357, "longitude": -87.4883179 }, "geometry": { "type": "Point", "coordinates": [ -87.4883179, 33.1899357 ] } },
{ "type": "Feature", "properties": { "name": "Washington VAMC", "Facility Type": "VAMC", "S_CITY": "Washington", "State": "DC", "S_ZIP": 20422, "S_ADD1": "VA Medical Center, Washington, D.C.", "S_ADD2": "50 Irving Street, N.W.", "STA_NO": "688", "Type": "Network Site", "Unnamed: 9": null, "full_address": "VA Medical Center, Washington, D.C., Washington, DC 20422", "latitude": 38.9288843, "longitude": -77.0103064 }, "geometry": { "type": "Point", "coordinates": [ -77.0103064, 38.9288843 ] } },
{ "type": "Feature", "properties": { "name": "West Haven VAMC", "Facility Type": "VAMC", "S_CITY": "West Haven", "State": "CT", "S_ZIP": 6516, "S_ADD1": "VA Medical Center", "S_ADD2": "950 Campbell Avenue", "STA_NO": "689", "Type": "Support Clinic", "Unnamed: 9": null, "full_address": "VA Medical Center, West Haven, CT 6516", "latitude": 41.2836643, "longitude": -72.9598319 }, "geometry": { "type": "Point", "coordinates": [ -72.9598319, 41.2836643 ] } },
{ "type": "Feature", "properties": { "name": "West Los Angeles VAMC", "Facility Type": "VAMC", "S_CITY": "West Los Angeles", "State": "CA", "S_ZIP": 90073, "S_ADD1": "Greater Los Angeles HCS", "S_ADD2": "11301 Wilshire Blvd.", "STA_NO": "691", "Type": "Network Site", "Unnamed: 9": null, "full_address": "Greater Los Angeles HCS, West Los Angeles, CA 90073", "latitude": 34.0468546, "longitude": -118.430254 }, "geometry": { "type": "Point", "coordinates": [ -118.430254, 34.0468546 ] } },
{ "type": "Feature", "properties": { "name": "West Palm Beach VAMC", "Facility Type": "VAMC", "S_CITY": "West Palm Beach", "State": "FL", "S_ZIP": 33410, "S_ADD1": "VA Medical Center", "S_ADD2": "7305 N. Military Trail", "STA_NO": "548", "Type": "Support Clinic", "Unnamed: 9": null, "full_address": "VA Medical Center, West Palm Beach, FL 33410", "latitude": 26.7850676, "longitude": -80.1086301 }, "geometry": { "type": "Point", "coordinates": [ -80.1086301, 26.7850676 ] } },
{ "type": "Feature", "properties": { "name": "White River Junction VAMC", "Facility Type": "VAMC", "S_CITY": "White River Junction", "State": "VT", "S_ZIP": 5009, "S_ADD1": "VA Medical Center", "S_ADD2": "215 North Main Street", "STA_NO": "405", "Type": "Support Clinic", "Unnamed: 9": null, "full_address": "VA Medical Center, White River Junction, VT 5009", "latitude": 43.6488036, "longitude": -72.3427549 }, "geometry": { "type": "Point", "coordinates": [ -72.3427549, 43.6488036 ] } },
{ "type": "Feature", "properties": { "name": "Wichita VAMC", "Facility Type": "VAMC", "S_CITY": "Wichita", "State": "KS", "S_ZIP": 67218, "S_ADD1": "Robert J. Dole VAMC", "S_ADD2": "5500 E. Kellogg", "STA_NO": "452", "Type": "Support Clinic", "Unnamed: 9": null, "full_address": "Robert J. Dole VAMC, Wichita, KS 67218", "latitude": 37.6922361, "longitude": -97.3375448 }, "geometry": { "type": "Point", "coordinates": [ -97.3375448, 37.6922361 ] } },
{ "type": "Feature", "properties": { "name": "Wilkes-Barre VAMC", "Facility Type": "VAMC", "S_CITY": "Wilkes-Barre", "State": "PA", "S_ZIP": 18711, "S_ADD1": "VA Medical Center", "S_ADD2": "1111 East End Blvd.", "STA_NO": "693", "Type": "Support Clinic", "Unnamed: 9": null, "full_address": "VA Medical Center, Wilkes-Barre, PA 18711", "latitude": 41.2481043, "longitude": -75.8359693 }, "geometry": { "type": "Point", "coordinates": [ -75.8359693, 41.2481043 ] } },
{ "type": "Feature", "properties": { "name": "Wilmington VAMC", "Facility Type": "VAMC", "S_CITY": "Wilmington", "State": "DE", "S_ZIP": 19805, "S_ADD1": "VA Medical Center", "S_ADD2": "1601 Kirkwood Highway", "STA_NO": "460", "Type": "Support Clinic", "Unnamed: 9": null, "full_address": "VA Medical Center, Wilmington, DE 19805", "latitude": 34.2045953, "longitude": -77.925152 }, "geometry": { "type": "Point", "coordinates": [ -77.925152, 34.2045953 ] } },
{ "type": "Feature", "properties": { "name": "Black Hills HCS - Ft. Meade Campus", "Facility Type": "VAMC", "S_CITY": "Fort Meade", "State": "SD", "S_ZIP": 57741, "S_ADD1": "VA Medical Center", "S_ADD2": "113 Comanche Road", "STA_NO": "568", "Type": "Support Clinic", "Unnamed: 9": null, "full_address": "VA Medical Center, Fort Meade, SD 57741", "latitude": 44.4109771, "longitude": -103.471514 }, "geometry": { "type": "Point", "coordinates": [ -103.471514, 44.4109771 ] } }
]
}
